[
  {
    "Cuisine": "American",
    "Hours": "Mon-Sat 8am-10pm, Sun 9am-9pm",
    "Location": "14961 N Florida Ave, Suite 14961, Florida Crossing Shopping Cntr, Tampa, FL 33613, USA",
    "Name": "Subway",
    "PhoneNumber": "(813) 963-2670",
    "Reviews": [
      {
        "AtmosphereRating": 5,
        "Comment": "Great!",
        "FoodRating": 5,
        "PriceRating": 5,
        "ReviewerName": "James Smith",
        "ServiceRating": 5
      },
      {
        "AtmosphereRating": 3,
        "Comment": "Pretty good",
        "FoodRating": 4,
        "PriceRating": 2,
        "ReviewerName": "Sarah White",
        "ServiceRating": 5
      }
    ],
    "Type": "Fast Food",
    "Specialty": "Subs",
    "WebAddress": "www.subway.com"
  },
  {
    "Cuisine": "Italian",
    "Hours": "Mon-Sat 5pm-10:30pm, Sun 4pm-10pm",
    "Location": "109 Gulf Blvd, Indian Rocks Beach, FL 33785, USA",
    "Name": "Villa Gallace",
    "PhoneNumber": "(727) 596-0200",
    "Reviews": [],
    "Type": "Fine Restaurant",
    "Specialty": "Pasta",
    "WebAddress": "www.villagallace.com"
  },
  {
    "Cuisine": "American",
    "Hours": "Mon-Sun 12am-11:30pm",
    "Location": "7410 N Nebraska Ave, Tampa, FL 33604, USA",
    "Name": "Three Coins Diner",
    "PhoneNumber": "(813) 239-1256",
    "Reviews": [],
    "Type": "Diner",
    "WebAddress": "threecoinsdiner.net"
  },
  {
    "Cuisine": "Peruvian",
    "Hours": "Mon-Thu 11:30am-8pm, Fri-Sat 11:30am-9pm, Sun 12pm-8pm",
    "Location": "4046 N Armenia Ave, Fiesta Plaza, Tampa, FL 33607, USA",
    "Name": "Happy Fish",
    "PhoneNumber": "(813) 871-6953",
    "Reviews": [],
    "Type": "Seafood",
    "Specialty": "Peruvian Meat & Vegetable Stews",
    "WebAddress": "happyfishtampa.com"
  },
  {
    "Cuisine": "American",
    "Hours": "Mon-Thu 6:30am-6:30pm, Fri 6:30am-10pm, Sat 7:30am-10pm, Sun 7:30am-6:30pm",
    "Location": "2109 S Dale Mabry Hwy, Tampa, FL 33629, USA",
    "Name": "Mini Doughnut Factory",
    "PhoneNumber": "(813) 254-5374",
    "Reviews": [],
    "Type": "Dessert",
    "Specialty": "Doughnuts",
    "WebAddress": "minidoughnutfactory.com"
  }
] 
